GPS Week,GPS TOW [s],Pos Mode,INS Mode,Hdg Mode,SVs Tracked,SVs Used,UTC Date,UTC Time,Lat [deg],Lon [deg],Alt Ellips [m],SOG [m/s],COG [deg],Hdg [deg],Horiz Vel [m/s],Vert Vel [m/s],Roll [deg],Pitch [deg],Yaw [deg],PDOP,HDOP,EHPE [m],EVPE [m],EHVE [m/s],EVVE [m/s],Baseline 2D [m],Baseline 3D [m],Corr. Age [s],Delta TOW [ms],2D Delta Pos [m],3D Delta Pos [m]
2111,414424.1,3,0,,,13,,,37.82853878,-122.2864018,-25.4784,5.62,74.883,,5.62,-0.07,,,,1.5,0.8,0.14,0.32,0.07,0.16,99569.877,99572.945,2.1,,,
2111,414424.2,3,0,,,13,,,37.82854004,-122.2863956,-25.4977,5.61,75.488,,5.61,-0.12,,,,1.5,0.8,0.14,0.33,0.07,0.16,99570.017,99573.085,1.2,100,0.561,0.561
2111,414424.3,3,0,,,13,,,37.82854133,-122.2863895,-25.5007,5.65,75.053,,5.65,-0.07,,,,1.5,0.8,0.14,0.33,0.07,0.16,99570.161,99573.229,1.3,100,0.561,0.561
2111,414424.4,3,0,,,13,,,37.82854265,-122.2863832,-25.5112,5.66,75.119,,5.66,-0.08,,,,1.5,0.8,0.14,0.3,0.07,0.16,99570.308,99573.376,1.4,100,0.566,0.566
2111,414424.5,3,0,,,13,,,37.82854392,-122.286377,-25.5143,5.67,75.505,,5.67,-0.03,,,,1.5,0.8,0.13,0.3,0.07,0.16,99570.45,99573.518,1.5,100,0.563,0.563
2111,414424.6,3,0,,,13,,,37.82854519,-122.2863708,-25.5179,5.68,75.758,,5.68,-0.04,,,,1.5,0.8,0.13,0.29,0.07,0.16,99570.59,99573.659,1.6,100,0.568,0.568
2111,414424.7,3,0,,,13,,,37.82854647,-122.2863646,-25.5123,5.67,75.371,,5.67,0.02,,,,1.5,0.8,0.14,0.31,0.07,0.16,99570.733,99573.801,1.7,100,0.564,0.564
2111,414424.8,3,0,,,13,,,37.82854781,-122.2863583,-25.5234,5.72,74.934,,5.72,-0.1,,,,1.5,0.8,0.15,0.34,0.07,0.16,99570.883,99573.951,1.8,100,0.572,0.572
2111,414424.9,3,0,,,13,,,37.82854908,-122.286352,-25.5157,5.73,75.632,,5.73,0.04,,,,1.5,0.8,0.14,0.33,0.07,0.16,99571.025,99574.094,0.9,100,0.566,0.566
2111,414425,3,0,,,13,,,37.8285504,-122.2863458,-25.5047,5.7,75.223,,5.7,0.05,,,,1.5,0.8,0.18,0.4,0.07,0.16,99571.172,99574.24,1,100,0.57,0.57
2111,414425.1,3,0,,,13,,,37.82855161,-122.2863395,-25.5085,5.72,76.078,,5.72,-0.03,,,,1.5,0.8,0.12,0.28,0.07,0.16,99571.307,99574.375,1.1,100,0.57,0.57
2111,414425.2,3,0,,,13,,,37.82855285,-122.2863331,-25.5128,5.75,76.278,,5.75,-0.02,,,,1.5,0.8,0.12,0.28,0.07,0.16,99571.444,99574.513,1.2,100,0.572,0.572
2111,414425.3,3,0,,,13,,,37.82855412,-122.2863267,-25.5177,5.77,75.834,,5.77,0.02,,,,1.5,0.8,0.13,0.3,0.07,0.16,99571.586,99574.655,1.3,100,0.579,0.579
2111,414425.4,3,0,,,13,,,37.82855541,-122.2863204,-25.5158,5.75,75.707,,5.75,-0.02,,,,1.5,0.8,0.12,0.28,0.07,0.16,99571.73,99574.798,1.4,100,0.571,0.571
2111,414425.5,3,0,,,13,,,37.82855669,-122.2863141,-25.5197,5.77,75.364,,5.77,-0.02,,,,1.5,0.8,0.15,0.33,0.07,0.16,99571.873,99574.942,1.5,100,0.574,0.574
2111,414425.6,3,0,,,13,,,37.82855797,-122.2863077,-25.5141,5.78,75.623,,5.78,0.07,,,,1.5,0.8,0.12,0.28,0.07,0.16,99572.015,99575.084,1.6,100,0.578,0.578
2111,414425.7,3,0,,,13,,,37.82855922,-122.2863014,-25.4969,5.78,75.584,,5.78,0.05,,,,1.5,0.8,0.13,0.29,0.08,0.16,99572.156,99575.224,1.7,100,0.574,0.574
2111,414425.8,3,0,,,13,,,37.8285605,-122.2862951,-25.5099,5.72,75.794,,5.72,-0.02,,,,1.5,0.8,0.12,0.27,0.08,0.16,99572.298,99575.366,0.8,100,0.573,0.573
2111,414425.9,3,0,,,13,,,37.82856175,-122.2862887,-25.4972,5.81,75.918,,5.81,0.07,,,,1.5,0.8,0.14,0.31,0.08,0.16,99572.438,99575.507,0.9,100,0.578,0.578
2111,414426,3,0,,,13,,,37.82856304,-122.2862823,-25.4836,5.78,75.767,,5.78,0.12,,,,1.5,0.8,0.1,0.23,0.08,0.16,99572.582,99575.65,1,100,0.576,0.576
2111,414426.1,3,0,,,13,,,37.8285643,-122.286276,-25.4962,5.77,75.894,,5.77,-0.09,,,,1.5,0.8,0.14,0.31,0.08,0.16,99572.722,99575.79,1.1,100,0.576,0.576
2111,414426.2,3,0,,,13,,,37.82856555,-122.2862696,-25.4845,5.79,75.856,,5.79,0.07,,,,1.5,0.8,0.12,0.27,0.08,0.16,99572.862,99575.931,1.2,100,0.576,0.576
2111,414426.3,3,0,,,13,,,37.82856683,-122.2862632,-25.4791,5.81,76.088,,5.81,0.07,,,,1.5,0.8,0.15,0.35,0.08,0.16,99573.004,99576.072,1.3,100,0.577,0.577
2111,414426.4,3,0,,,13,,,37.82856805,-122.2862569,-25.462,5.78,76.089,,5.78,0.1,,,,1.5,0.8,0.14,0.32,0.08,0.16,99573.142,99576.21,1.4,100,0.576,0.576
2111,414426.5,3,0,,,13,,,37.82856934,-122.2862504,-25.4605,5.83,75.864,,5.83,0.02,,,,1.5,0.8,0.13,0.3,0.08,0.16,99573.284,99576.353,1.5,100,0.582,0.582
2111,414426.6,3,0,,,13,,,37.82857061,-122.2862441,-25.4442,5.8,75.966,,5.8,0.12,,,,1.5,0.8,0.15,0.34,0.08,0.16,99573.426,99576.494,1.6,100,0.576,0.576
2111,414426.7,3,0,,,13,,,37.82857191,-122.2862376,-25.4477,5.87,75.729,,5.87,-0.03,,,,1.5,0.8,0.17,0.37,0.08,0.16,99573.572,99576.64,1.7,100,0.587,0.587
2111,414426.8,3,0,,,13,,,37.82857315,-122.2862312,-25.4513,5.83,76.176,,5.83,0,,,,1.5,0.8,0.12,0.28,0.08,0.16,99573.71,99576.778,1.8,100,0.58,0.58
2111,414426.9,3,0,,,13,,,37.8285744,-122.2862247,-25.4487,5.86,76.142,,5.86,0.06,,,,1.5,0.8,0.13,0.29,0.08,0.16,99573.849,99576.917,1.9,100,0.587,0.587
2111,414427,3,0,,,13,,,37.82857564,-122.2862182,-25.4304,5.86,76.412,,5.86,0.13,,,,1.5,0.8,0.11,0.25,0.08,0.16,99573.988,99577.056,2,100,0.583,0.583
2111,414427.1,3,0,,,13,,,37.8285769,-122.2862118,-25.4308,5.86,76.023,,5.86,0.04,,,,1.5,0.8,0.11,0.25,0.08,0.16,99574.129,99577.197,2.1,100,0.586,0.586
2111,414427.2,3,0,,,13,,,37.82857819,-122.2862054,-25.4231,5.85,75.95,,5.85,0.09,,,,1.5,0.8,0.11,0.25,0.08,0.16,99574.273,99577.341,1.2,100,0.581,0.581
2111,414427.3,3,0,,,13,,,37.82857947,-122.2861989,-25.4133,5.89,75.919,,5.89,0.07,,,,1.5,0.8,0.12,0.27,0.08,0.16,99574.416,99577.484,1.3,100,0.587,0.588
2111,414427.4,3,0,,,13,,,37.82858077,-122.2861924,-25.4073,5.88,75.765,,5.88,0.07,,,,1.5,0.8,0.12,0.27,0.08,0.16,99574.561,99577.629,1.4,100,0.587,0.587
2111,414427.5,3,0,,,13,,,37.82858204,-122.2861859,-25.3981,5.88,76.117,,5.88,0.09,,,,1.5,0.8,0.16,0.36,0.08,0.16,99574.704,99577.772,1.5,100,0.586,0.586
2111,414427.6,3,0,,,13,,,37.8285833,-122.2861794,-25.3843,5.89,76.334,,5.89,0.14,,,,1.5,0.8,0.13,0.29,0.08,0.16,99574.845,99577.912,1.6,100,0.587,0.587
2111,414427.7,3,0,,,13,,,37.82858456,-122.2861729,-25.3705,5.89,76.049,,5.89,0.09,,,,1.5,0.8,0.13,0.3,0.08,0.16,99574.985,99578.053,1.7,100,0.586,0.586
2111,414427.8,3,0,,,13,,,37.82858587,-122.2861664,-25.354,5.96,75.845,,5.95,0.16,,,,1.5,0.8,0.14,0.31,0.08,0.16,99575.131,99578.199,1.8,100,0.591,0.592
2111,414427.9,3,0,,,13,,,37.82858719,-122.2861599,-25.3544,5.97,75.752,,5.97,-0.01,,,,1.5,0.8,0.15,0.35,0.08,0.16,99575.278,99578.345,1.9,100,0.594,0.594
2111,414428,3,0,,,13,,,37.82858843,-122.2861533,-25.3468,5.94,76.352,,5.94,0.05,,,,1.5,0.8,0.11,0.26,0.08,0.16,99575.418,99578.485,2,100,0.593,0.593
2111,414428.1,3,0,,,13,,,37.82858972,-122.2861467,-25.3479,6.01,76.172,,6.01,0,,,,1.5,0.8,0.14,0.33,0.08,0.16,99575.561,99578.628,2.1,100,0.598,0.598
2111,414428.2,3,0,,,13,,,37.82859099,-122.2861402,-25.3428,5.92,76.109,,5.91,0.06,,,,1.5,0.8,0.14,0.33,0.08,0.16,99575.702,99578.77,2.2,100,0.591,0.591
2111,414428.3,3,0,,,13,,,37.82859226,-122.2861336,-25.3359,5.97,76.101,,5.97,0.06,,,,1.5,0.8,0.14,0.32,0.08,0.16,99575.844,99578.912,2.3,100,0.594,0.594
2111,414428.4,3,0,,,13,,,37.82859359,-122.286127,-25.3241,5.99,75.829,,5.99,0.13,,,,1.5,0.8,0.13,0.3,0.08,0.16,99575.993,99579.06,2.4,100,0.597,0.597
2111,414428.5,3,0,,,13,,,37.82859486,-122.2861204,-25.321,5.97,76.439,,5.97,0.03,,,,1.5,0.8,0.14,0.32,0.08,0.16,99576.135,99579.202,2.5,100,0.595,0.595
2111,414428.6,3,0,,,13,,,37.82859613,-122.2861138,-25.3082,5.98,76.217,,5.98,0.15,,,,1.5,0.8,0.13,0.3,0.08,0.16,99576.277,99579.344,2.6,100,0.595,0.595
2111,414428.7,3,0,,,13,,,37.82859744,-122.2861072,-25.2977,6.02,75.779,,6.02,0.11,,,,1.5,0.8,0.16,0.36,0.08,0.16,99576.423,99579.491,1.7,100,0.601,0.601
2111,414428.8,3,0,,,13,,,37.82859882,-122.2861006,-25.3048,5.98,75.235,,5.98,0,,,,1.5,0.8,0.15,0.35,0.08,0.16,99576.576,99579.643,0.8,100,0.597,0.597
2111,414428.9,3,0,,,13,,,37.82860017,-122.286094,-25.2957,6.01,75.382,,6.01,0.05,,,,1.5,0.8,0.13,0.3,0.08,0.16,99576.727,99579.794,0.9,100,0.598,0.599
2111,414429,3,0,,,13,,,37.82860151,-122.2860874,-25.2763,6.01,75.615,,6.01,0.17,,,,1.5,0.8,0.14,0.33,0.08,0.16,99576.878,99579.945,1,100,0.598,0.598
2111,414429.1,3,0,,,13,,,37.82860285,-122.2860808,-25.2666,6.01,75.723,,6.01,0.11,,,,1.5,0.8,0.14,0.32,0.08,0.16,99577.028,99580.095,1.1,100,0.599,0.599
2111,414429.2,3,0,,,13,,,37.82860424,-122.2860742,-25.2578,6.05,75.348,,6.05,0.1,,,,1.5,0.8,0.14,0.33,0.08,0.16,99577.183,99580.249,1.2,100,0.602,0.602
2111,414429.3,3,0,,,13,,,37.82860557,-122.2860675,-25.2561,6.08,75.865,,6.08,0.03,,,,1.5,0.8,0.14,0.33,0.08,0.16,99577.331,99580.398,1.3,100,0.607,0.607
2111,414429.4,3,0,,,13,,,37.82860692,-122.2860609,-25.2535,6.04,75.425,,6.04,0.05,,,,1.5,0.8,0.14,0.31,0.08,0.16,99577.482,99580.549,1.4,100,0.602,0.602
2111,414429.5,3,0,,,13,,,37.82860824,-122.2860542,-25.251,6.08,75.92,,6.08,0.05,,,,1.5,0.8,0.13,0.3,0.08,0.16,99577.629,99580.696,1.5,100,0.606,0.606
2111,414429.6,3,0,,,13,,,37.82860961,-122.2860476,-25.2377,6.04,75.29,,6.04,0.11,,,,1.5,0.8,0.13,0.3,0.08,0.16,99577.782,99580.849,1.6,100,0.6,0.601
2111,414429.7,3,0,,,13,,,37.82861097,-122.2860409,-25.2366,6.04,75.49,,6.04,0.03,,,,1.5,0.8,0.15,0.34,0.08,0.16,99577.935,99581.002,1.7,100,0.602,0.602
2111,414429.8,3,0,,,13,,,37.82861234,-122.2860342,-25.2238,6.09,75.581,,6.09,0.11,,,,1.5,0.8,0.13,0.29,0.08,0.16,99578.087,99581.153,1.8,100,0.607,0.607
2111,414429.9,3,0,,,13,,,37.82861371,-122.2860276,-25.2148,6.07,75.234,,6.07,0.05,,,,1.5,0.8,0.13,0.29,0.08,0.16,99578.24,99581.307,1.9,100,0.605,0.605
2111,414430,3,0,,,13,,,37.82861508,-122.2860209,-25.2077,6.06,75.402,,6.06,0.08,,,,1.5,0.8,0.13,0.3,0.08,0.16,99578.393,99581.46,2,100,0.604,0.604
2111,414430.1,3,0,,,13,,,37.8286165,-122.2860143,-25.1929,6.02,74.83,,6.02,0.13,,,,1.5,0.8,0.14,0.32,0.08,0.16,99578.552,99581.619,2.1,100,0.598,0.598
2111,414430.2,3,0,,,13,,,37.82861787,-122.2860077,-25.1834,6.04,75.441,,6.03,0.1,,,,1.5,0.8,0.13,0.29,0.08,0.16,99578.705,99581.772,2.2,100,0.602,0.602
2111,414430.3,3,0,,,13,,,37.82861931,-122.2860011,-25.172,6.05,74.816,,6.04,0.13,,,,1.5,0.8,0.16,0.35,0.08,0.16,99578.866,99581.932,2.3,100,0.601,0.601
2111,414430.4,3,0,,,13,,,37.82862064,-122.2859945,-25.1624,6.01,75.499,,6.01,0.06,,,,1.5,0.8,0.17,0.38,0.08,0.16,99579.015,99582.081,2.4,100,0.601,0.601
2111,414430.5,3,0,,,13,,,37.828622,-122.2859879,-25.1676,6.02,75.462,,6.02,-0.02,,,,1.5,0.8,0.14,0.33,0.08,0.16,99579.166,99582.232,2.5,100,0.601,0.601
2111,414430.6,3,0,,,13,,,37.82862336,-122.2859813,-25.1675,6.02,75.317,,6.02,0.07,,,,1.5,0.8,0.14,0.33,0.08,0.16,99579.319,99582.385,1.6,100,0.6,0.6
2111,414430.7,3,0,,,13,,,37.82862472,-122.2859747,-25.1682,6.03,75.486,,6.03,0,,,,1.5,0.8,0.14,0.31,0.08,0.16,99579.469,99582.536,1.7,100,0.6,0.6
2111,414430.8,3,0,,,13,,,37.82862606,-122.2859681,-25.1626,5.98,75.22,,5.98,0.02,,,,1.5,0.8,0.12,0.28,0.08,0.16,99579.62,99582.687,1.8,100,0.597,0.597
2111,414430.9,3,0,,,13,,,37.82862741,-122.2859615,-25.1552,5.97,75.64,,5.97,0.08,,,,1.5,0.8,0.13,0.3,0.08,0.16,99579.77,99582.837,0.9,100,0.596,0.596
2111,414431,3,0,,,13,,,37.82862881,-122.2859549,-25.1477,6,75.109,,6,0.09,,,,1.5,0.8,0.14,0.31,0.08,0.16,99579.927,99582.993,1,100,0.597,0.597
2111,414431.1,3,0,,,13,,,37.82863017,-122.2859484,-25.1423,5.98,75.406,,5.98,0.02,,,,1.5,0.8,0.13,0.29,0.08,0.16,99580.079,99583.145,1.1,100,0.596,0.596
2111,414431.2,3,0,,,13,,,37.82863156,-122.2859418,-25.1312,5.97,75.012,,5.97,0.1,,,,1.5,0.8,0.14,0.32,0.08,0.16,99580.235,99583.301,1.2,100,0.596,0.596
2111,414431.3,3,0,,,13,,,37.8286329,-122.2859353,-25.1308,5.94,75.461,,5.94,-0.01,,,,1.5,0.8,0.14,0.31,0.08,0.16,99580.384,99583.45,1.3,100,0.592,0.592
2111,414431.4,3,0,,,13,,,37.82863423,-122.2859288,-25.124,5.94,75.585,,5.94,0.06,,,,1.5,0.8,0.14,0.32,0.08,0.16,99580.532,99583.598,1.4,100,0.592,0.592
2111,414431.5,3,0,,,13,,,37.82863557,-122.2859223,-25.1164,5.88,75.349,,5.88,0.12,,,,1.5,0.8,0.14,0.31,0.08,0.16,99580.683,99583.749,1.5,100,0.587,0.587
2111,414431.6,3,0,,,13,,,37.82863694,-122.2859158,-25.1018,5.9,74.999,,5.9,0.11,,,,1.5,0.8,0.12,0.28,0.08,0.16,99580.835,99583.902,1.6,100,0.587,0.587
2111,414431.7,3,0,,,13,,,37.82863829,-122.2859094,-25.099,5.88,75.37,,5.88,0.04,,,,1.5,0.8,0.16,0.37,0.08,0.16,99580.986,99584.052,1.7,100,0.585,0.585
2111,414431.8,3,0,,,13,,,37.82863971,-122.285903,-25.0899,5.85,74.492,,5.85,0.07,,,,1.5,0.8,0.14,0.32,0.08,0.16,99581.144,99584.21,1.8,100,0.581,0.582
2111,414431.9,3,0,,,13,,,37.82864102,-122.2858966,-25.0853,5.86,75.551,,5.86,0.02,,,,1.5,0.8,0.17,0.38,0.08,0.16,99581.291,99584.357,1.9,100,0.586,0.586
2111,414432,3,0,,,13,,,37.8286423,-122.2858901,-25.0866,5.86,75.779,,5.86,0.02,,,,1.5,0.8,0.12,0.28,0.08,0.16,99581.434,99584.5,2,100,0.587,0.587
2111,414432.1,3,0,,,13,,,37.82864362,-122.2858837,-25.0729,5.8,75.308,,5.8,0.11,,,,1.5,0.8,0.12,0.28,0.08,0.16,99581.582,99584.648,2.1,100,0.578,0.579
2111,414432.2,4,0,,,13,,,37.82864177,-122.2858805,-25.1574,5.82,74.882,,5.82,0.01,,,,1.5,0.8,0.13,0.21,0.08,0.16,99581.375,99584.442,1.2,100,0.352,0.362
2111,414432.3,4,0,,,13,,,37.82864293,-122.2858743,-25.1763,5.81,74.905,,5.81,0.03,,,,1.5,0.8,0.13,0.22,0.08,0.16,99581.505,99584.572,1.3,100,0.559,0.56
2111,414432.4,4,0,,,13,,,37.82864409,-122.2858683,-25.1649,5.74,74.719,,5.74,0.08,,,,1.5,0.8,0.13,0.22,0.08,0.16,99581.634,99584.701,1.4,100,0.54,0.54
2111,414432.5,4,0,,,13,,,37.8286459,-122.2858614,-25.1655,5.76,74.986,,5.76,-0.02,,,,1.5,0.8,0.13,0.22,0.08,0.16,99581.836,99584.903,1.5,100,0.642,0.642
2111,414432.6,4,0,,,13,,,37.82864714,-122.2858551,-25.1596,5.73,75.22,,5.73,0,,,,1.5,0.8,0.14,0.23,0.08,0.16,99581.975,99585.042,1.6,100,0.564,0.564
2111,414432.7,4,0,,,13,,,37.82864842,-122.285849,-25.1494,5.72,74.813,,5.72,0.13,,,,1.5,0.8,0.14,0.23,0.08,0.16,99582.118,99585.184,1.7,100,0.56,0.56
2111,414432.8,4,0,,,13,,,37.82864978,-122.2858426,-25.1544,5.66,75.115,,5.66,0.05,,,,1.5,0.8,0.14,0.23,0.08,0.16,99582.27,99585.336,1.8,100,0.578,0.578
2111,414432.9,4,0,,,13,,,37.82865117,-122.2858364,-25.2205,5.66,74.74,,5.66,0.03,,,,1.5,0.8,0.14,0.23,0.08,0.16,99582.425,99585.492,1.9,100,0.568,0.572
2111,414433,4,0,,,13,,,37.82865239,-122.2858302,-25.1977,5.67,74.933,,5.67,0.04,,,,1.5,0.8,0.14,0.24,0.08,0.16,99582.561,99585.628,2,100,0.556,0.557
2111,414433.1,4,0,,,13,,,37.828654,-122.2858242,-25.0825,5.61,74.453,,5.61,0.15,,,,1.5,0.8,0.15,0.24,0.08,0.16,99582.742,99585.808,2.1,100,0.56,0.572
2111,414433.2,4,0,,,13,,,37.82865525,-122.2858176,-25.1043,5.68,74.941,,5.68,-0.04,,,,1.5,0.8,0.15,0.24,0.08,0.16,99582.882,99585.949,2.2,100,0.599,0.599
2111,414433.3,4,0,,,13,,,37.82865634,-122.2858124,-25.1437,5.6,74.759,,5.6,0.03,,,,1.5,0.8,0.08,0.19,0.08,0.16,99583.002,99586.069,1.3,100,0.467,0.469
2111,414433.4,4,0,,,13,,,37.82865748,-122.2858061,-25.213,5.59,75.307,,5.59,-0.01,,,,1.5,0.8,0.08,0.2,0.08,0.16,99583.128,99586.195,1.4,100,0.573,0.577
2111,414433.5,4,0,,,13,,,37.82865899,-122.2858003,-25.1844,5.58,75.089,,5.58,0.08,,,,1.5,0.8,0.08,0.2,0.08,0.16,99583.298,99586.365,1.5,100,0.536,0.536
2111,414433.6,4,0,,,13,,,37.8286601,-122.285794,-25.1998,5.56,75.586,,5.56,0.03,,,,1.5,0.8,0.08,0.2,0.08,0.16,99583.421,99586.488,1.6,100,0.568,0.568
2111,414433.7,4,0,,,13,,,37.82866132,-122.285788,-25.1505,5.54,75.064,,5.54,0.07,,,,1.5,0.8,0.08,0.2,0.08,0.16,99583.559,99586.625,1.7,100,0.54,0.542
2111,414433.8,4,0,,,13,,,37.8286628,-122.2857819,-25.1389,5.51,75.001,,5.51,-0.03,,,,1.5,0.8,0.08,0.21,0.08,0.16,99583.725,99586.791,1.8,100,0.56,0.56
2111,414433.9,4,0,,,13,,,37.82866399,-122.2857758,-25.1925,5.44,75.621,,5.44,0.01,,,,1.5,0.8,0.08,0.21,0.08,0.16,99583.857,99586.924,1.9,100,0.551,0.553
2111,414434,4,0,,,13,,,37.82866526,-122.2857699,-25.1532,5.46,75.142,,5.46,0.16,,,,1.5,0.8,0.07,0.19,0.08,0.16,99583.999,99587.065,1,100,0.544,0.546
2111,414434.1,4,0,,,13,,,37.82866636,-122.2857641,-25.1502,5.49,75.43,,5.49,0.01,,,,1.5,0.8,0.07,0.19,0.08,0.16,99584.122,99587.189,1.1,100,0.524,0.524
2111,414434.2,4,0,,,13,,,37.82866795,-122.285758,-25.0745,5.41,75.196,,5.41,0.13,,,,1.5,0.8,0.08,0.19,0.08,0.16,99584.3,99587.366,1.2,100,0.564,0.569
2111,414434.3,4,0,,,13,,,37.82866887,-122.2857518,-25.1102,5.5,75.251,,5.5,-0.01,,,,1.5,0.8,0.08,0.19,0.08,0.16,99584.402,99587.469,1.3,100,0.554,0.555
2111,414434.4,4,0,,,13,,,37.82867025,-122.2857459,-25.1387,5.43,74.786,,5.43,0.04,,,,1.5,0.8,0.08,0.2,0.08,0.16,99584.556,99587.623,1.4,100,0.534,0.535
2111,414434.5,4,0,,,13,,,37.82867144,-122.28574,-25.1813,5.41,75.363,,5.41,-0.05,,,,1.5,0.8,0.08,0.2,0.08,0.16,99584.688,99587.755,1.5,100,0.538,0.54
2111,414434.6,4,0,,,13,,,37.82867246,-122.2857341,-25.0662,5.37,75.602,,5.37,0.08,,,,1.5,0.8,0.08,0.2,0.08,0.16,99584.805,99587.871,1.6,100,0.529,0.541
2111,414434.7,4,0,,,13,,,37.82867381,-122.2857279,-25.1057,5.35,76.426,,5.35,-0.03,,,,1.5,0.8,0.08,0.2,0.08,0.16,99584.955,99588.021,1.7,100,0.563,0.564
2111,414434.8,4,0,,,13,,,37.828675,-122.2857221,-25.0726,5.36,76.332,,5.36,0.01,,,,1.5,0.8,0.08,0.21,0.08,0.16,99585.089,99588.155,1.8,100,0.528,0.529
2111,414434.9,4,0,,,13,,,37.82867612,-122.2857161,-25.1597,5.32,76.006,,5.32,0.09,,,,1.5,0.8,0.07,0.18,0.08,0.16,99585.212,99588.279,0.9,100,0.542,0.549
2111,414435,4,0,,,13,,,37.82867731,-122.2857103,-25.1907,5.37,75.242,,5.37,0.01,,,,1.5,0.8,0.07,0.19,0.08,0.16,99585.345,99588.412,1,100,0.524,0.525
2111,414435.1,4,0,,,13,,,37.8286785,-122.2857048,-25.0983,5.26,74.825,,5.26,-0.06,,,,1.5,0.8,0.07,0.19,0.08,0.16,99585.479,99588.546,1.1,100,0.505,0.514
2111,414435.2,4,0,,,13,,,37.8286799,-122.2856988,-25.1127,5.33,75.62,,5.33,0.01,,,,1.5,0.8,0.08,0.19,0.08,0.16,99585.635,99588.702,1.2,100,0.548,0.548
2111,414435.3,4,0,,,13,,,37.82868121,-122.2856929,-25.1661,5.3,75.945,,5.3,0.02,,,,1.5,0.8,0.08,0.19,0.08,0.16,99585.78,99588.847,1.3,100,0.542,0.545
2111,414435.4,4,0,,,13,,,37.82868227,-122.2856871,-25.1655,5.27,76.212,,5.27,0.03,,,,1.5,0.8,0.08,0.2,0.08,0.16,99585.899,99588.966,1.4,100,0.52,0.52
2111,414435.5,4,0,,,13,,,37.82868283,-122.2856815,-25.0957,5.26,76.791,,5.26,0.04,,,,1.5,0.8,0.08,0.2,0.08,0.16,99585.963,99589.03,1.5,100,0.498,0.503
2111,414435.6,4,0,,,13,,,37.82868431,-122.2856755,-25.114,5.21,76.129,,5.21,-0.03,,,,1.5,0.8,0.08,0.2,0.08,0.16,99586.129,99589.196,1.6,100,0.546,0.546
2111,414435.7,4,0,,,13,,,37.82868545,-122.2856697,-25.0756,5.26,75.723,,5.26,0.04,,,,1.5,0.8,0.08,0.2,0.08,0.16,99586.256,99589.322,1.7,100,0.526,0.528
2111,414435.8,4,0,,,13,,,37.82868671,-122.2856643,-25.1652,5.19,76.164,,5.19,-0.02,,,,1.5,0.8,0.08,0.21,0.08,0.16,99586.396,99589.463,1.8,100,0.493,0.501
2111,414435.9,4,0,,,13,,,37.82868747,-122.2856582,-25.0837,5.19,76.636,,5.19,0.08,,,,1.5,0.8,0.08,0.21,0.08,0.16,99586.482,99589.548,1.9,100,0.547,0.553
2111,414436,4,0,,,13,,,37.82868876,-122.2856525,-25.1714,5.17,76.902,,5.17,-0.09,,,,1.5,0.8,0.09,0.21,0.08,0.16,99586.625,99589.692,2,100,0.524,0.531
2111,414436.1,4,0,,,13,,,37.82868968,-122.285647,-25.1019,5.17,77.146,,5.17,0.04,,,,1.5,0.8,0.09,0.21,0.08,0.16,99586.729,99589.795,2.1,100,0.49,0.495
2111,414436.2,4,0,,,13,,,37.82869074,-122.2856412,-25.1328,5.19,77.022,,5.19,-0.01,,,,1.5,0.8,0.09,0.22,0.08,0.16,99586.847,99589.914,2.2,100,0.524,0.525
2111,414436.3,4,0,,,13,,,37.82869199,-122.2856353,-25.1842,5.13,76.403,,5.13,0,,,,1.5,0.8,0.09,0.22,0.08,0.16,99586.985,99590.053,2.3,100,0.531,0.534
2111,414436.4,4,0,,,13,,,37.82869287,-122.2856299,-25.1376,5.08,76.235,,5.08,-0.01,,,,1.5,0.8,0.08,0.2,0.08,0.16,99587.085,99590.152,1.4,100,0.485,0.487
2111,414436.5,4,0,,,13,,,37.8286941,-122.2856242,-25.176,5.15,77.546,,5.15,0.04,,,,1.5,0.8,0.08,0.2,0.08,0.16,99587.222,99590.289,1.5,100,0.518,0.52
2111,414436.6,4,0,,,13,,,37.82869512,-122.2856183,-25.085,5.08,76.999,,5.08,0.01,,,,1.5,0.8,0.08,0.2,0.08,0.16,99587.338,99590.405,1.6,100,0.536,0.544
2111,414436.7,4,0,,,13,,,37.82869599,-122.285613,-25.1279,5.05,77.605,,5.05,0.02,,,,1.5,0.8,0.08,0.2,0.08,0.16,99587.435,99590.502,1.7,100,0.472,0.474
2111,414436.8,4,0,,,13,,,37.82869682,-122.2856072,-25.1343,5.04,77.763,,5.04,0,,,,1.5,0.8,0.08,0.21,0.08,0.16,99587.528,99590.595,1.8,100,0.52,0.52
2111,414436.9,4,0,,,13,,,37.82869817,-122.2856019,-25.1512,5,77.295,,5,0.03,,,,1.5,0.8,0.08,0.21,0.08,0.16,99587.678,99590.745,1.9,100,0.49,0.491
2111,414437,4,0,,,13,,,37.82869895,-122.2855962,-25.1352,4.99,77.55,,4.99,0.07,,,,1.5,0.8,0.09,0.21,0.08,0.16,99587.765,99590.832,2,100,0.505,0.505
2111,414437.1,4,0,,,13,,,37.82869989,-122.2855907,-25.0811,4.97,77.679,,4.97,0.08,,,,1.5,0.8,0.09,0.21,0.08,0.16,99587.872,99590.938,2.1,100,0.495,0.498
2111,414437.2,4,0,,,13,,,37.82870064,-122.2855852,-25.0938,4.94,77.962,,4.94,0.01,,,,1.5,0.8,0.09,0.22,0.08,0.16,99587.956,99591.022,2.2,100,0.489,0.489
2111,414437.3,4,0,,,13,,,37.82870172,-122.2855794,-25.111,4.94,77.561,,4.93,0.1,,,,1.5,0.8,0.09,0.22,0.08,0.16,99588.076,99591.142,2.3,100,0.522,0.522
2111,414437.4,4,0,,,13,,,37.82870263,-122.2855744,-25.0719,4.88,77.804,,4.88,-0.03,,,,1.5,0.8,0.09,0.22,0.08,0.16,99588.178,99591.245,2.4,100,0.452,0.453
2111,414437.5,4,0,,,13,,,37.82870355,-122.2855692,-25.0728,4.88,77.404,,4.88,0.04,,,,1.5,0.8,0.09,0.22,0.08,0.16,99588.281,99591.348,2.5,100,0.473,0.473
2111,414437.6,4,0,,,13,,,37.82870452,-122.2855634,-25.0447,4.85,77.401,,4.85,0.07,,,,1.5,0.8,0.08,0.2,0.08,0.16,99588.39,99591.456,1.6,100,0.519,0.519
2111,414437.7,4,0,,,13,,,37.82870538,-122.2855583,-25.0987,4.8,77.831,,4.8,0.09,,,,1.5,0.8,0.08,0.2,0.08,0.16,99588.486,99591.553,1.7,100,0.456,0.459
2111,414437.8,4,0,,,13,,,37.82870662,-122.285553,-25.0876,4.79,77.686,,4.79,0.13,,,,1.5,0.8,0.08,0.21,0.08,0.16,99588.625,99591.692,1.8,100,0.486,0.486
2111,414437.9,4,0,,,13,,,37.82870702,-122.2855477,-25.0303,4.76,78.52,,4.76,0.07,,,,1.5,0.8,0.08,0.21,0.08,0.16,99588.671,99591.737,1.9,100,0.464,0.468
2111,414438,4,0,,,13,,,37.82870819,-122.2855427,-25.0397,4.72,78.292,,4.72,0.14,,,,1.5,0.8,0.09,0.21,0.08,0.16,99588.802,99591.868,2,100,0.463,0.463
2111,414438.1,4,0,,,13,,,37.82870869,-122.2855372,-25.0024,4.69,78.52,,4.69,0.03,,,,1.5,0.8,0.09,0.21,0.08,0.16,99588.859,99591.925,2.1,100,0.482,0.483
2111,414438.2,4,0,,,13,,,37.82870985,-122.2855318,-25.019,4.69,77.785,,4.69,0.11,,,,1.5,0.8,0.09,0.22,0.08,0.16,99588.988,99592.055,2.2,100,0.495,0.495
2111,414438.3,4,0,,,13,,,37.82871076,-122.2855268,-25.0682,4.61,77.849,,4.61,0.01,,,,1.5,0.8,0.09,0.22,0.08,0.16,99589.089,99592.156,2.3,100,0.452,0.455
2111,414438.4,4,0,,,13,,,37.82871181,-122.2855218,-25.0453,4.64,77.49,,4.64,0.02,,,,1.5,0.8,0.09,0.22,0.07,0.16,99589.206,99592.272,2.4,100,0.454,0.454
2111,414438.5,4,0,,,13,,,37.82871229,-122.2855167,-25.0064,4.58,78.022,,4.58,0.06,,,,1.5,0.8,0.09,0.22,0.07,0.16,99589.261,99592.327,2.5,100,0.452,0.453
2111,414438.6,4,0,,,13,,,37.82871344,-122.2855115,-25.0426,4.53,78.112,,4.53,0.13,,,,1.5,0.8,0.08,0.2,0.07,0.16,99589.389,99592.455,1.6,100,0.474,0.475
2111,414438.7,4,0,,,13,,,37.8287141,-122.2855064,-25.0503,4.54,78.17,,4.54,0.09,,,,1.5,0.8,0.08,0.2,0.07,0.16,99589.464,99592.53,1.7,100,0.452,0.452
2111,414438.8,4,0,,,13,,,37.82871504,-122.2855015,-25.0129,4.44,77.857,,4.44,0.14,,,,1.5,0.8,0.08,0.21,0.07,0.16,99589.57,99592.636,1.8,100,0.438,0.44
2111,414438.9,4,0,,,13,,,37.82871596,-122.285497,-24.9944,4.43,77.531,,4.43,0.02,,,,1.5,0.8,0.08,0.21,0.07,0.16,99589.671,99592.737,1.9,100,0.412,0.412
2111,414439,4,0,,,13,,,37.82871653,-122.2854922,-25.0002,4.39,77.184,,4.39,0.16,,,,1.5,0.8,0.09,0.21,0.07,0.16,99589.736,99592.802,2,100,0.431,0.431
2111,414439.1,4,0,,,13,,,37.82871747,-122.2854872,-24.9565,4.36,76.866,,4.36,0.11,,,,1.5,0.8,0.09,0.21,0.07,0.16,99589.842,99592.908,2.1,100,0.451,0.453
2111,414439.2,4,0,,,13,,,37.8287186,-122.2854825,-24.9256,4.27,76.638,,4.27,0.14,,,,1.5,0.8,0.09,0.22,0.07,0.16,99589.969,99593.034,2.2,100,0.431,0.432
2111,414439.3,4,0,,,13,,,37.8287197,-122.2854776,-24.912,4.24,76.091,,4.24,0.1,,,,1.5,0.8,0.08,0.19,0.07,0.16,99590.092,99593.157,1.3,100,0.442,0.442
2111,414439.4,4,0,,,13,,,37.82872056,-122.2854727,-24.8911,4.22,75.413,,4.21,0.16,,,,1.5,0.8,0.08,0.23,0.08,0.16,99590.19,99593.255,1.4,100,0.441,0.441
2111,414439.5,4,0,,,13,,,37.82872163,-122.2854686,-24.8696,4.16,74.74,,4.16,0.02,,,,1.5,0.8,0.09,0.23,0.08,0.16,99590.308,99593.373,1.5,100,0.386,0.387
2111,414439.6,4,0,,,13,,,37.82872253,-122.2854639,-24.8302,4.1,73.722,,4.1,0.06,,,,1.5,0.8,0.09,0.24,0.08,0.16,99590.41,99593.475,1.6,100,0.422,0.424
2111,414439.7,4,0,,,13,,,37.82872343,-122.2854598,-24.8102,4.02,72.421,,4.02,0.11,,,,1.5,0.8,0.09,0.24,0.08,0.16,99590.511,99593.575,1.7,100,0.371,0.372
2111,414439.8,4,0,,,13,,,37.82872467,-122.2854555,-24.8257,3.98,71.693,,3.98,0.13,,,,1.5,0.8,0.09,0.24,0.08,0.16,99590.649,99593.713,1.8,100,0.404,0.405
2111,414439.9,4,0,,,13,,,37.82872572,-122.2854513,-24.8546,3.93,71.828,,3.93,0.03,,,,1.5,0.8,0.08,0.21,0.08,0.16,99590.765,99593.83,0.9,100,0.39,0.391
2111,414440,4,0,,,13,,,37.82872718,-122.2854469,-24.8967,3.86,69.843,,3.86,0.06,,,,1.5,0.8,0.08,0.22,0.08,0.16,99590.928,99593.993,1,100,0.414,0.417
2111,414440.1,4,0,,,13,,,37.82872832,-122.2854431,-24.8161,3.74,69.372,,3.74,0.01,,,,1.5,0.8,0.08,0.22,0.08,0.16,99591.056,99594.12,1.1,100,0.355,0.364
2111,414440.2,4,0,,,13,,,37.82872957,-122.2854393,-24.8213,3.65,67.557,,3.65,0.09,,,,1.5,0.8,0.08,0.22,0.08,0.16,99591.196,99594.261,1.2,100,0.365,0.365
2111,414440.3,4,0,,,13,,,37.82873092,-122.2854357,-24.8263,3.57,66.359,,3.57,0.08,,,,1.5,0.8,0.08,0.23,0.08,0.17,99591.346,99594.411,1.3,100,0.348,0.348
2111,414440.4,4,0,,,13,,,37.82873234,-122.2854316,-24.9089,3.48,63.663,,3.48,0.1,,,,1.5,0.8,0.08,0.23,0.08,0.17,99591.503,99594.568,1.4,100,0.397,0.406
2111,414440.5,4,0,,,13,,,37.82873373,-122.2854282,-24.8707,3.44,61.936,,3.44,0.1,,,,1.5,0.8,0.09,0.23,0.08,0.17,99591.658,99594.724,1.5,100,0.332,0.335
2111,414440.6,4,0,,,13,,,37.82873525,-122.2854245,-24.8566,3.42,60.644,,3.42,0.15,,,,1.5,0.8,0.09,0.24,0.08,0.17,99591.828,99594.893,1.6,100,0.369,0.37
2111,414440.7,4,0,,,13,,,37.82873677,-122.2854214,-24.8708,3.38,58.676,,3.38,0.04,,,,1.5,0.8,0.09,0.24,0.08,0.17,99591.998,99595.063,1.7,100,0.317,0.317
2111,414440.8,4,0,,,13,,,37.82873848,-122.2854181,-24.8361,3.36,56.022,,3.36,0.1,,,,1.5,0.8,0.09,0.24,0.08,0.16,99592.187,99595.252,1.8,100,0.348,0.35
2111,414440.9,4,0,,,13,,,37.82874018,-122.2854153,-24.8029,3.3,54.604,,3.3,0.15,,,,1.5,0.8,0.08,0.21,0.08,0.16,99592.378,99595.442,0.9,100,0.313,0.315
2111,414441,4,0,,,13,,,37.82874199,-122.2854123,-24.829,3.31,51.764,,3.31,0.08,,,,1.5,0.8,0.08,0.22,0.08,0.16,99592.578,99595.643,1,100,0.329,0.33
2111,414441.1,4,0,,,13,,,37.82874378,-122.285409,-24.8738,3.27,51.083,,3.27,0.04,,,,1.5,0.8,0.08,0.22,0.08,0.16,99592.777,99595.842,1.1,100,0.355,0.358
2111,414441.2,4,0,,,13,,,37.82874574,-122.2854067,-24.7881,3.23,48.11,,3.23,0.08,,,,1.5,0.8,0.08,0.22,0.08,0.16,99592.996,99596.061,1.2,100,0.294,0.306
2111,414441.3,4,0,,,13,,,37.82874751,-122.2854031,-24.8656,3.17,47.099,,3.17,0.11,,,,1.5,0.8,0.08,0.23,0.08,0.16,99593.192,99596.257,1.3,100,0.371,0.379
2111,414441.4,4,0,,,13,,,37.82874935,-122.2854004,-24.9542,3.19,45.584,,3.19,0.03,,,,1.5,0.8,0.08,0.23,0.08,0.16,99593.396,99596.462,1.4,100,0.313,0.325
2111,414441.5,4,0,,,13,,,37.82875177,-122.2853989,-24.7964,3.11,43.957,,3.11,0.14,,,,1.5,0.8,0.11,0.27,0.08,0.17,99593.667,99596.731,1.5,100,0.3,0.339
2111,414441.6,4,0,,,13,,,37.82875402,-122.2853968,-24.7895,3.11,40.517,,3.11,0.04,,,,1.5,0.8,0.11,0.28,0.08,0.17,99593.917,99596.982,1.6,100,0.314,0.314
2111,414441.7,4,0,,,13,,,37.82875594,-122.2853944,-24.8309,3.02,38.467,,3.02,0.12,,,,1.5,0.8,0.11,0.28,0.08,0.17,99594.13,99597.195,1.7,100,0.297,0.299
2111,414441.8,4,0,,,13,,,37.82875817,-122.2853926,-24.7719,3.01,34.383,,3.01,0.07,,,,1.5,0.8,0.11,0.28,0.08,0.17,99594.379,99597.443,1.8,100,0.294,0.3
2111,414441.9,4,0,,,13,,,37.82876045,-122.2853908,-24.703,3.01,33.088,,3.01,0.14,,,,1.5,0.8,0.12,0.29,0.08,0.17,99594.633,99597.697,1.9,100,0.301,0.309
2111,414442,4,0,,,13,,,37.82876295,-122.2853893,-24.7311,2.92,30.196,,2.92,0.09,,,,1.5,0.8,0.12,0.29,0.08,0.17,99594.91,99597.975,2,100,0.307,0.308
2111,414442.1,4,0,,,13,,,37.82876529,-122.2853878,-24.7233,2.89,29.745,,2.89,0.06,,,,1.5,0.8,0.12,0.29,0.08,0.17,99595.171,99598.235,2.1,100,0.292,0.292
2111,414442.2,4,0,,,13,,,37.82876729,-122.2853859,-24.7056,2.91,27.394,,2.91,0.08,,,,1.5,0.8,0.1,0.26,0.08,0.17,99595.393,99598.457,1.2,100,0.275,0.275
2111,414442.3,4,0,,,13,,,37.82876956,-122.2853844,-24.7966,2.84,24.751,,2.84,0.1,,,,1.5,0.8,0.11,0.26,0.08,0.17,99595.644,99598.709,1.3,100,0.288,0.302
2111,414442.4,4,0,,,13,,,37.82877232,-122.2853833,-24.7216,2.86,22.396,,2.86,0.1,,,,1.5,0.8,0.11,0.27,0.08,0.17,99595.951,99599.016,1.4,100,0.32,0.329
2111,414442.5,4,0,,,13,,,37.82877431,-122.2853825,-24.7134,2.8,19.692,,2.8,0.06,,,,1.5,0.8,0.11,0.27,0.08,0.17,99596.172,99599.237,1.5,100,0.234,0.234
2111,414442.6,4,0,,,13,,,37.82877693,-122.2853814,-24.6871,2.84,17.4,,2.84,0.02,,,,1.5,0.8,0.11,0.28,0.08,0.17,99596.464,99599.528,1.6,100,0.306,0.307
2111,414442.7,4,0,,,13,,,37.82877945,-122.2853804,-24.7468,2.77,14.648,,2.77,0.1,,,,1.5,0.8,0.11,0.28,0.08,0.17,99596.743,99599.808,1.7,100,0.293,0.299
2111,414442.8,4,0,,,13,,,37.82878222,-122.2853798,-24.6989,2.8,12.5,,2.8,-0.05,,,,1.5,0.8,0.11,0.28,0.08,0.17,99597.052,99600.116,1.8,100,0.314,0.317
2111,414442.9,4,0,,,13,,,37.82878483,-122.2853794,-24.5823,2.76,10.748,,2.76,0.04,,,,1.5,0.8,0.1,0.25,0.08,0.17,99597.343,99600.406,0.9,100,0.292,0.314
2111,414443,4,0,,,13,,,37.8287871,-122.2853789,-24.6241,2.78,9.503,,2.78,0.05,,,,1.5,0.8,0.1,0.25,0.08,0.17,99597.594,99600.658,1,100,0.256,0.259
2111,414443.1,4,0,,,13,,,37.82878954,-122.2853786,-24.5937,2.72,6.075,,2.72,-0.05,,,,1.5,0.8,0.1,0.26,0.08,0.17,99597.865,99600.929,1.1,100,0.273,0.274
2111,414443.2,4,0,,,13,,,37.82879193,-122.2853784,-24.6154,2.75,4.426,,2.75,0,,,,1.5,0.8,0.1,0.26,0.08,0.17,99598.13,99601.194,1.2,100,0.267,0.268
2111,414443.3,4,0,,,13,,,37.82879431,-122.2853783,-24.6102,2.72,2.253,,2.72,-0.02,,,,1.5,0.8,0.11,0.26,0.08,0.17,99598.394,99601.458,1.3,100,0.265,0.265
2111,414443.4,4,0,,,13,,,37.82879671,-122.2853783,-24.6683,2.7,358.704,,2.7,0.05,,,,1.5,0.8,0.11,0.27,0.08,0.17,99598.66,99601.724,1.4,100,0.267,0.273
2111,414443.5,4,0,,,13,,,37.8287991,-122.2853788,-24.5893,2.7,356.268,,2.7,-0.01,,,,1.5,0.8,0.11,0.27,0.08,0.17,99598.927,99601.991,1.5,100,0.269,0.28
2111,414443.6,4,0,,,13,,,37.82880174,-122.2853794,-24.5036,2.66,352.886,,2.66,0.01,,,,1.5,0.8,0.11,0.28,0.08,0.17,99599.221,99602.284,1.6,100,0.298,0.31
2111,414443.7,4,0,,,13,,,37.82880434,-122.2853797,-24.5386,2.68,351.033,,2.68,0,,,,1.5,0.8,0.11,0.28,0.08,0.17,99599.509,99602.572,1.7,100,0.291,0.293
2111,414443.8,4,0,,,13,,,37.8288066,-122.2853809,-24.5827,2.66,346.518,,2.66,0.01,,,,1.5,0.8,0.11,0.28,0.08,0.17,99599.759,99602.822,1.8,100,0.271,0.274
2111,414443.9,4,0,,,13,,,37.82880874,-122.2853814,-24.5341,2.62,343.734,,2.62,0,,,,1.5,0.8,0.1,0.25,0.08,0.17,99599.997,99603.06,0.9,100,0.242,0.247
2111,414444,4,0,,,13,,,37.82881118,-122.2853822,-24.5284,2.69,341.181,,2.69,-0.02,,,,1.5,0.8,0.1,0.25,0.08,0.17,99600.268,99603.331,1,100,0.282,0.282
2111,414444.1,4,0,,,13,,,37.82881312,-122.2853832,-24.6209,2.59,338.079,,2.58,-0.06,,,,1.5,0.8,0.1,0.26,0.08,0.17,99600.481,99603.545,1.1,100,0.231,0.248
2111,414444.2,4,0,,,13,,,37.82881542,-122.2853843,-24.5738,2.58,336.182,,2.58,-0.02,,,,1.5,0.8,0.1,0.26,0.08,0.17,99600.736,99603.8,1.2,100,0.274,0.278
2111,414444.3,4,0,,,13,,,37.82881705,-122.2853857,-24.5691,2.51,333.333,,2.51,0.07,,,,1.5,0.8,0.11,0.26,0.08,0.17,99600.917,99603.981,1.3,100,0.219,0.219
2111,414444.4,4,0,,,13,,,37.82881925,-122.2853869,-24.5845,2.53,331.773,,2.53,0.01,,,,1.5,0.8,0.11,0.27,0.08,0.17,99601.162,99604.225,1.4,100,0.269,0.269
2111,414444.5,4,0,,,13,,,37.82882129,-122.2853883,-24.5778,2.51,328.436,,2.5,-0.06,,,,1.5,0.8,0.11,0.27,0.08,0.17,99601.387,99604.451,1.5,100,0.256,0.256
2111,414444.6,4,0,,,13,,,37.82882287,-122.2853895,-24.6556,2.46,325.446,,2.46,0.02,,,,1.5,0.8,0.11,0.28,0.08,0.17,99601.561,99604.626,1.6,100,0.204,0.218
2111,414444.7,4,0,,,13,,,37.82882498,-122.2853915,-24.6124,2.46,324.446,,2.46,-0.03,,,,1.5,0.8,0.11,0.28,0.08,0.17,99601.796,99604.86,1.7,100,0.296,0.299
2111,414444.8,4,0,,,13,,,37.82882668,-122.2853935,-24.5963,2.46,321.773,,2.46,0,,,,1.5,0.8,0.11,0.28,0.08,0.17,99601.984,99605.048,1.8,100,0.255,0.255
2111,414444.9,4,0,,,13,,,37.8288281,-122.2853952,-24.6258,2.43,318.512,,2.42,-0.07,,,,1.5,0.8,0.1,0.25,0.08,0.17,99602.141,99605.205,0.9,100,0.216,0.218
2111,414445,4,0,,,13,,,37.8288296,-122.285397,-24.6316,2.37,316.963,,2.37,-0.04,,,,1.5,0.8,0.1,0.25,0.08,0.17,99602.307,99605.371,1,100,0.233,0.233
2111,414445.1,4,0,,,13,,,37.82883112,-122.2853989,-24.6588,2.41,314.782,,2.41,0,,,,1.5,0.8,0.1,0.26,0.08,0.17,99602.476,99605.54,1.1,100,0.24,0.242
2111,414445.2,4,0,,,13,,,37.82883268,-122.2854012,-24.537,2.33,313.012,,2.32,-0.08,,,,1.5,0.8,0.1,0.26,0.08,0.17,99602.65,99605.714,1.2,100,0.262,0.289
2111,414445.3,4,0,,,13,,,37.8288343,-122.2854032,-24.5549,2.33,309.796,,2.33,-0.02,,,,1.5,0.8,0.11,0.26,0.08,0.17,99602.829,99605.892,1.3,100,0.25,0.25
2111,414445.4,4,0,,,13,,,37.82883552,-122.2854055,-24.5494,2.28,307.59,,2.28,-0.09,,,,1.5,0.8,0.11,0.27,0.08,0.17,99602.964,99606.028,1.4,100,0.246,0.246
2111,414445.5,4,0,,,13,,,37.82883657,-122.2854071,-24.6417,2.29,306.07,,2.29,-0.06,,,,1.5,0.8,0.11,0.27,0.08,0.17,99603.078,99606.142,1.5,100,0.184,0.206
2111,414445.6,4,0,,,13,,,37.82883763,-122.285409,-24.6087,2.19,303.552,,2.19,0.01,,,,1.5,0.8,0.11,0.28,0.08,0.17,99603.197,99606.261,1.6,100,0.207,0.209
2111,414445.7,4,0,,,13,,,37.82883886,-122.2854116,-24.6175,2.28,302.365,,2.28,0.03,,,,1.5,0.8,0.11,0.28,0.08,0.17,99603.332,99606.397,1.7,100,0.264,0.265
2111,414445.8,4,0,,,13,,,37.82883977,-122.2854138,-24.5837,2.19,299.965,,2.19,-0.04,,,,1.5,0.8,0.11,0.28,0.08,0.17,99603.434,99606.498,1.8,100,0.219,0.221
2111,414445.9,4,0,,,13,,,37.82884072,-122.2854158,-24.5799,2.17,297.262,,2.17,-0.08,,,,1.5,0.8,0.1,0.25,0.08,0.17,99603.538,99606.603,0.9,100,0.205,0.205
2111,414446,4,0,,,13,,,37.82884144,-122.2854182,-24.5577,2.19,294.819,,2.19,-0.03,,,,1.5,0.8,0.1,0.25,0.08,0.17,99603.618,99606.682,1,100,0.222,0.223
2111,414446.1,4,0,,,13,,,37.82884247,-122.2854207,-24.6324,2.19,292.648,,2.19,-0.03,,,,1.5,0.8,0.1,0.26,0.08,0.17,99603.731,99606.795,1.1,100,0.25,0.261
2111,414446.2,4,0,,,13,,,37.82884305,-122.2854228,-24.6273,2.13,291.436,,2.13,-0.03,,,,1.5,0.8,0.1,0.26,0.08,0.17,99603.795,99606.86,1.2,100,0.194,0.194
2111,414446.3,4,0,,,13,,,37.82884346,-122.2854251,-24.6254,2.12,288.752,,2.12,-0.1,,,,1.5,0.8,0.11,0.26,0.08,0.17,99603.84,99606.904,1.3,100,0.205,0.205
2111,414446.4,4,0,,,13,,,37.82884387,-122.2854273,-24.6522,2.11,287.145,,2.11,0.01,,,,1.5,0.8,0.11,0.27,0.08,0.17,99603.885,99606.95,1.4,100,0.197,0.199
2111,414446.5,4,0,,,13,,,37.82884449,-122.2854294,-24.6303,2.11,285.953,,2.11,0.01,,,,1.5,0.8,0.11,0.27,0.08,0.17,99603.954,99607.019,1.5,100,0.204,0.206
2111,414446.6,4,0,,,13,,,37.828845,-122.2854315,-24.5703,2.07,284.951,,2.07,-0.03,,,,1.5,0.8,0.11,0.28,0.08,0.17,99604.011,99607.075,1.6,100,0.189,0.198
2111,414446.7,4,0,,,13,,,37.82884522,-122.2854337,-24.6465,2.1,283.406,,2.1,-0.01,,,,1.5,0.8,0.11,0.28,0.08,0.17,99604.034,99607.099,1.7,100,0.199,0.214
2111,414446.8,4,0,,,13,,,37.82884561,-122.2854361,-24.7419,2.1,281.636,,2.1,-0.03,,,,1.5,0.8,0.11,0.28,0.08,0.17,99604.076,99607.141,1.8,100,0.21,0.23
2111,414446.9,4,0,,,13,,,37.82884588,-122.2854384,-24.678,2.11,280.97,,2.11,-0.06,,,,1.5,0.8,0.1,0.25,0.08,0.17,99604.106,99607.17,0.9,100,0.201,0.211
2111,414447,4,0,,,13,,,37.82884642,-122.2854413,-24.6753,2.14,279.48,,2.14,-0.02,,,,1.5,0.8,0.1,0.25,0.08,0.17,99604.165,99607.23,1,100,0.267,0.267
2111,414447.1,4,0,,,13,,,37.82884673,-122.2854434,-24.7685,2.16,279.222,,2.16,-0.02,,,,1.5,0.8,0.1,0.26,0.08,0.17,99604.199,99607.264,1.1,100,0.187,0.209
2111,414447.2,4,0,,,13,,,37.82884701,-122.2854459,-24.6848,2.18,277.112,,2.18,0.01,,,,1.5,0.8,0.1,0.26,0.08,0.17,99604.23,99607.295,1.2,100,0.221,0.237
2111,414447.3,4,0,,,13,,,37.82884723,-122.2854487,-24.5792,2.19,275.791,,2.19,-0.04,,,,1.5,0.8,0.11,0.26,0.08,0.17,99604.256,99607.32,1.3,100,0.251,0.272
2111,414447.4,4,0,,,13,,,37.8288474,-122.2854512,-24.6575,2.26,275.475,,2.25,-0.12,,,,1.5,0.8,0.11,0.27,0.08,0.17,99604.272,99607.337,1.4,100,0.218,0.231
2111,414447.5,4,0,,,13,,,37.82884747,-122.2854536,-24.7168,2.24,274.732,,2.24,0.04,,,,1.5,0.8,0.11,0.27,0.08,0.17,99604.279,99607.344,1.5,100,0.207,0.216
2111,414447.6,4,0,,,13,,,37.82884747,-122.2854561,-24.7257,2.29,273.587,,2.29,-0.03,,,,1.5,0.8,0.11,0.28,0.08,0.17,99604.278,99607.344,1.6,100,0.22,0.22
2111,414447.7,4,0,,,13,,,37.82884786,-122.2854589,-24.682,2.33,273.304,,2.32,-0.03,,,,1.5,0.8,0.11,0.28,0.08,0.17,99604.322,99607.387,1.7,100,0.256,0.26
2111,414447.8,4,0,,,13,,,37.82884768,-122.2854619,-24.6748,2.34,272.47,,2.34,-0.07,,,,1.5,0.8,0.11,0.28,0.08,0.17,99604.301,99607.366,1.8,100,0.261,0.261
2111,414447.9,4,0,,,13,,,37.82884788,-122.2854648,-24.7407,2.37,271.768,,2.37,-0.08,,,,1.5,0.8,0.12,0.29,0.08,0.17,99604.323,99607.388,1.9,100,0.253,0.262
2111,414448,4,0,,,13,,,37.82884816,-122.2854671,-24.7944,2.41,273.073,,2.41,0,,,,1.5,0.8,0.1,0.25,0.08,0.17,99604.352,99607.418,1,100,0.204,0.211
2111,414448.1,4,0,,,13,,,37.8288481,-122.2854699,-24.7354,2.45,272.055,,2.45,-0.01,,,,1.5,0.8,0.1,0.26,0.08,0.17,99604.346,99607.411,1.1,100,0.244,0.251
2111,414448.2,4,0,,,13,,,37.82884828,-122.2854727,-24.7239,2.43,271.179,,2.43,-0.01,,,,1.5,0.8,0.1,0.26,0.08,0.17,99604.366,99607.431,1.2,100,0.25,0.25
2111,414448.3,4,0,,,13,,,37.82884854,-122.2854754,-24.6919,2.49,271.037,,2.49,-0.07,,,,1.5,0.8,0.11,0.26,0.08,0.17,99604.394,99607.459,1.3,100,0.244,0.246
2111,414448.4,4,0,,,13,,,37.8288488,-122.2854785,-24.716,2.53,270.975,,2.53,-0.06,,,,1.5,0.8,0.11,0.27,0.08,0.17,99604.423,99607.488,1.4,100,0.271,0.272
2111,414448.5,4,0,,,13,,,37.82884889,-122.2854812,-24.7757,2.57,270.022,,2.57,0,,,,1.5,0.8,0.11,0.27,0.08,0.17,99604.431,99607.497,1.5,100,0.239,0.246
2111,414448.6,4,0,,,13,,,37.82884858,-122.2854842,-24.7459,2.57,269.577,,2.57,-0.07,,,,1.5,0.8,0.11,0.28,0.08,0.17,99604.397,99607.462,1.6,100,0.264,0.266
2111,414448.7,4,0,,,13,,,37.82884853,-122.285487,-24.7333,2.61,269.276,,2.61,0,,,,1.5,0.8,0.11,0.28,0.08,0.17,99604.39,99607.455,1.7,100,0.244,0.244
2111,414448.8,4,0,,,13,,,37.82884866,-122.2854899,-24.738,2.68,268.227,,2.68,0.01,,,,1.5,0.8,0.11,0.28,0.08,0.17,99604.405,99607.47,1.8,100,0.254,0.254
2111,414448.9,4,0,,,13,,,37.82884811,-122.2854927,-24.8066,2.7,268.214,,2.7,-0.07,,,,1.5,0.8,0.12,0.29,0.08,0.17,99604.341,99607.407,1.9,100,0.254,0.263
2111,414449,4,0,,,13,,,37.82884821,-122.285496,-24.8085,2.72,268.145,,2.72,-0.01,,,,1.5,0.8,0.1,0.25,0.08,0.17,99604.352,99607.417,1,100,0.289,0.289
2111,414449.1,4,0,,,13,,,37.82884814,-122.2854993,-24.8073,2.79,268.643,,2.79,-0.04,,,,1.5,0.8,0.1,0.25,0.08,0.17,99604.344,99607.41,1.1,100,0.29,0.29
2111,414449.2,4,0,,,13,,,37.82884773,-122.2855023,-24.7855,2.79,268.092,,2.79,-0.07,,,,1.5,0.8,0.1,0.26,0.08,0.17,99604.298,99607.364,1.2,100,0.275,0.276
2111,414449.3,4,0,,,13,,,37.82884799,-122.2855056,-24.7987,2.88,268.726,,2.88,0.01,,,,1.5,0.8,0.11,0.26,0.08,0.17,99604.326,99607.392,1.3,100,0.291,0.292
2111,414449.4,4,0,,,13,,,37.82884774,-122.285509,-24.8222,2.9,267.748,,2.9,-0.02,,,,1.5,0.8,0.11,0.27,0.08,0.17,99604.297,99607.363,1.4,100,0.292,0.293
2111,414449.5,4,0,,,13,,,37.82884788,-122.2855125,-24.8066,2.95,268.565,,2.95,0.01,,,,1.5,0.8,0.11,0.27,0.08,0.17,99604.313,99607.379,1.5,100,0.308,0.309
2111,414449.6,4,0,,,13,,,37.82884782,-122.2855156,-24.8158,2.97,268.261,,2.97,-0.04,,,,1.5,0.8,0.11,0.28,0.08,0.17,99604.305,99607.371,1.6,100,0.277,0.277
2111,414449.7,4,0,,,13,,,37.82884759,-122.2855194,-24.7918,3.02,267.837,,3.02,-0.04,,,,1.5,0.8,0.11,0.28,0.08,0.17,99604.28,99607.345,1.7,100,0.329,0.33
2111,414449.8,4,0,,,13,,,37.82884773,-122.2855224,-24.8294,3.07,268.191,,3.07,-0.01,,,,1.5,0.8,0.11,0.28,0.08,0.17,99604.294,99607.36,1.8,100,0.272,0.275
2111,414449.9,4,0,,,13,,,37.82884787,-122.2855266,-24.812,3.12,268.532,,3.12,-0.04,,,,1.5,0.8,0.12,0.29,0.08,0.17,99604.309,99607.375,1.9,100,0.362,0.362
2111,414450,4,0,,,13,,,37.82884732,-122.2855296,-24.8167,3.18,268.29,,3.18,-0.03,,,,1.5,0.8,0.12,0.29,0.08,0.17,99604.248,99607.314,2,100,0.273,0.273
2111,414450.1,4,0,,,13,,,37.82884741,-122.2855336,-24.7929,3.21,269.055,,3.21,-0.02,,,,1.5,0.8,0.12,0.29,0.08,0.17,99604.257,99607.323,2.1,100,0.355,0.356
2111,414450.2,4,0,,,13,,,37.8288472,-122.2855374,-24.7794,3.3,269.062,,3.3,0,,,,1.5,0.8,0.12,0.3,0.08,0.17,99604.234,99607.3,2.2,100,0.334,0.334
2111,414450.3,4,0,,,13,,,37.82884739,-122.2855413,-24.7787,3.3,269.01,,3.3,-0.05,,,,1.5,0.8,0.11,0.26,0.08,0.17,99604.254,99607.319,1.3,100,0.344,0.344
2111,414450.4,4,0,,,13,,,37.82884711,-122.285545,-24.8319,3.33,268.178,,3.33,0.02,,,,1.5,0.8,0.11,0.27,0.08,0.16,99604.222,99607.288,1.4,100,0.319,0.324
2111,414450.5,4,0,,,13,,,37.82884732,-122.2855489,-24.7822,3.37,268.076,,3.37,-0.05,,,,1.5,0.8,0.11,0.27,0.08,0.16,99604.245,99607.31,1.5,100,0.343,0.347
2111,414450.6,4,0,,,13,,,37.82884716,-122.2855527,-24.7492,3.41,267.798,,3.41,-0.01,,,,1.5,0.8,0.11,0.28,0.08,0.16,99604.227,99607.292,1.6,100,0.338,0.34
2111,414450.7,4,0,,,13,,,37.82884692,-122.2855565,-24.7731,3.42,267.789,,3.42,-0.06,,,,1.5,0.8,0.11,0.28,0.08,0.16,99604.199,99607.265,1.7,100,0.332,0.333
2111,414450.8,4,0,,,13,,,37.82884702,-122.2855605,-24.7464,3.45,267.557,,3.45,-0.05,,,,1.5,0.8,0.11,0.28,0.08,0.16,99604.211,99607.276,1.8,100,0.354,0.355
2111,414450.9,4,0,,,13,,,37.82884652,-122.2855642,-24.863,3.49,267.322,,3.49,0.01,,,,1.5,0.8,0.1,0.25,0.08,0.16,99604.152,99607.218,0.9,100,0.326,0.347
2111,414451,4,0,,,13,,,37.82884663,-122.2855683,-24.7429,3.44,267.12,,3.44,0,,,,1.5,0.8,0.1,0.25,0.08,0.16,99604.165,99607.231,1,100,0.368,0.387
2111,414451.1,4,0,,,13,,,37.82884635,-122.285572,-24.7793,3.49,267.373,,3.49,-0.02,,,,1.5,0.8,0.1,0.25,0.08,0.16,99604.134,99607.199,1.1,100,0.323,0.325
2111,414451.2,4,0,,,13,,,37.8288462,-122.2855761,-24.805,3.5,268.265,,3.5,-0.02,,,,1.5,0.8,0.1,0.26,0.08,0.16,99604.116,99607.182,1.2,100,0.363,0.364
2111,414451.3,4,0,,,13,,,37.8288459,-122.2855801,-24.8116,3.51,267.125,,3.51,-0.01,,,,1.5,0.8,0.11,0.26,0.08,0.16,99604.081,99607.147,1.3,100,0.354,0.354
2111,414451.4,4,0,,,13,,,37.82884624,-122.2855842,-24.793,3.52,267.444,,3.52,-0.05,,,,1.5,0.8,0.11,0.27,0.08,0.16,99604.119,99607.184,1.4,100,0.361,0.361
2111,414451.5,4,0,,,13,,,37.82884582,-122.285588,-24.7739,3.53,267.546,,3.53,-0.06,,,,1.5,0.8,0.11,0.27,0.08,0.16,99604.072,99607.138,1.5,100,0.338,0.339
2111,414451.6,4,0,,,13,,,37.82884578,-122.2855924,-24.7878,3.55,267.355,,3.55,-0.01,,,,1.5,0.8,0.11,0.28,0.08,0.16,99604.066,99607.132,1.6,100,0.379,0.38
2111,414451.7,4,0,,,13,,,37.82884563,-122.2855964,-24.7487,3.54,267.25,,3.54,-0.06,,,,1.5,0.8,0.11,0.28,0.08,0.16,99604.05,99607.115,1.7,100,0.353,0.355
2111,414451.8,4,0,,,13,,,37.82884532,-122.2856004,-24.7918,3.6,267.022,,3.6,-0.05,,,,1.5,0.8,0.11,0.28,0.08,0.16,99604.015,99607.081,1.8,100,0.352,0.354
2111,414451.9,4,0,,,13,,,37.82884531,-122.2856043,-24.7801,3.54,267.439,,3.54,-0.03,,,,1.5,0.8,0.12,0.29,0.08,0.16,99604.012,99607.078,1.9,100,0.348,0.348
2111,414452,4,0,,,13,,,37.82884518,-122.2856085,-24.8043,3.59,267.767,,3.59,-0.05,,,,1.5,0.8,0.12,0.29,0.08,0.16,99603.998,99607.064,2,100,0.363,0.364
2111,414452.1,4,0,,,13,,,37.828845,-122.2856127,-24.757,3.6,266.866,,3.6,0.01,,,,1.5,0.8,0.1,0.25,0.08,0.16,99603.978,99607.043,1.1,100,0.374,0.377
2111,414452.2,4,0,,,13,,,37.82884475,-122.2856165,-24.7917,3.56,266.943,,3.56,0.04,,,,1.5,0.8,0.1,0.26,0.08,0.16,99603.947,99607.013,1.2,100,0.33,0.332
2111,414452.3,4,0,,,13,,,37.82884446,-122.2856207,-24.7893,3.58,267.089,,3.58,0.02,,,,1.5,0.8,0.11,0.26,0.08,0.16,99603.915,99606.98,1.3,100,0.372,0.372
2111,414452.4,4,0,,,13,,,37.82884465,-122.2856248,-24.8053,3.62,267.438,,3.62,0.02,,,,1.5,0.8,0.11,0.27,0.08,0.16,99603.936,99607.002,1.4,100,0.362,0.362
2111,414452.5,4,0,,,13,,,37.82884441,-122.285629,-24.7736,3.61,267.298,,3.61,-0.04,,,,1.5,0.8,0.11,0.27,0.08,0.16,99603.908,99606.974,1.5,100,0.372,0.374
2111,414452.6,4,0,,,13,,,37.82884395,-122.2856326,-24.8885,3.61,266.888,,3.61,-0.01,,,,1.5,0.8,0.11,0.28,0.08,0.16,99603.856,99606.922,1.6,100,0.319,0.339
2111,414452.7,4,0,,,13,,,37.82884376,-122.2856371,-24.8282,3.62,266.609,,3.62,0.02,,,,1.5,0.8,0.11,0.28,0.08,0.16,99603.834,99606.9,1.7,100,0.4,0.405
2111,414452.8,4,0,,,13,,,37.82884383,-122.2856414,-24.7264,3.63,267.045,,3.63,-0.01,,,,1.5,0.8,0.11,0.28,0.08,0.16,99603.843,99606.909,1.8,100,0.372,0.386
2111,414452.9,4,0,,,13,,,37.82884347,-122.2856453,-24.7622,3.65,266.1,,3.65,-0.03,,,,1.5,0.8,0.12,0.29,0.08,0.16,99603.802,99606.867,1.9,100,0.344,0.345
2111,414453,4,0,,,13,,,37.82884327,-122.2856495,-24.727,3.68,265.637,,3.68,0,,,,1.5,0.8,0.12,0.29,0.08,0.16,99603.78,99606.845,2,100,0.376,0.378
2111,414453.1,4,0,,,13,,,37.828843,-122.2856536,-24.7932,3.63,265.166,,3.63,0.05,,,,1.5,0.8,0.12,0.29,0.08,0.16,99603.747,99606.813,2.1,100,0.353,0.359
2111,414453.2,4,0,,,13,,,37.8288425,-122.2856576,-24.8326,3.65,264.107,,3.65,-0.02,,,,1.5,0.8,0.1,0.26,0.08,0.16,99603.692,99606.758,1.2,100,0.359,0.361
2111,414453.3,4,0,,,13,,,37.82884191,-122.2856614,-24.7793,3.66,263.37,,3.66,0.01,,,,1.5,0.8,0.11,0.26,0.08,0.16,99603.626,99606.692,1.3,100,0.345,0.349
2111,414453.4,4,0,,,13,,,37.82884186,-122.2856657,-24.8303,3.66,263.134,,3.66,-0.07,,,,1.5,0.8,0.11,0.27,0.08,0.16,99603.619,99606.685,1.4,100,0.373,0.376
2111,414453.5,4,0,,,13,,,37.82884131,-122.2856697,-24.7661,3.67,262.402,,3.67,0.04,,,,1.5,0.8,0.11,0.27,0.08,0.16,99603.558,99606.623,1.5,100,0.361,0.367
2111,414453.6,4,0,,,13,,,37.82884096,-122.2856742,-24.7335,3.68,261.493,,3.68,0.06,,,,1.5,0.8,0.11,0.28,0.08,0.16,99603.519,99606.584,1.6,100,0.396,0.397
2111,414453.7,4,0,,,13,,,37.82884047,-122.2856782,-24.7857,3.68,261.645,,3.68,-0.04,,,,1.5,0.8,0.11,0.28,0.08,0.16,99603.464,99606.529,1.7,100,0.356,0.36
2111,414453.8,4,0,,,13,,,37.82883965,-122.285682,-24.7991,3.68,260.099,,3.68,-0.03,,,,1.5,0.8,0.11,0.28,0.08,0.16,99603.371,99606.437,1.8,100,0.348,0.348
2111,414453.9,4,0,,,13,,,37.82883923,-122.2856866,-24.7676,3.7,259.672,,3.7,0,,,,1.5,0.8,0.12,0.29,0.08,0.16,99603.325,99606.391,1.9,100,0.401,0.402
2111,414454,4,0,,,13,,,37.82883876,-122.2856906,-24.8285,3.7,259.154,,3.7,-0.01,,,,1.5,0.8,0.12,0.29,0.08,0.16,99603.271,99606.337,2,100,0.356,0.362
2111,414454.1,4,0,,,13,,,37.82883816,-122.2856949,-24.7998,3.71,259.023,,3.71,-0.05,,,,1.5,0.8,0.12,0.29,0.08,0.16,99603.204,99606.27,2.1,100,0.386,0.387
2111,414454.2,4,0,,,13,,,37.82883711,-122.2856991,-24.7564,3.71,257.947,,3.71,0.02,,,,1.5,0.8,0.1,0.26,0.08,0.16,99603.087,99606.153,1.2,100,0.382,0.385
2111,414454.3,4,0,,,13,,,37.82883675,-122.2857031,-24.7937,3.7,258.414,,3.7,-0.04,,,,1.5,0.8,0.11,0.26,0.08,0.16,99603.046,99606.111,1.3,100,0.359,0.361
2111,414454.4,4,0,,,13,,,37.82883591,-122.2857073,-24.7842,3.75,258.246,,3.75,0.01,,,,1.5,0.8,0.11,0.27,0.08,0.16,99602.952,99606.018,1.4,100,0.374,0.374
2111,414454.5,4,0,,,13,,,37.82883512,-122.2857116,-24.7779,3.75,257.604,,3.75,-0.04,,,,1.5,0.8,0.11,0.27,0.08,0.16,99602.864,99605.93,1.5,100,0.395,0.395
2111,414454.6,4,0,,,13,,,37.82883459,-122.285716,-24.768,3.78,257.893,,3.78,-0.01,,,,1.5,0.8,0.11,0.28,0.08,0.16,99602.806,99605.871,1.6,100,0.388,0.388
2111,414454.7,4,0,,,13,,,37.82883387,-122.2857201,-24.7395,3.75,257.365,,3.75,-0.02,,,,1.5,0.8,0.11,0.28,0.08,0.16,99602.725,99605.79,1.7,100,0.369,0.37
2111,414454.8,4,0,,,13,,,37.82883285,-122.2857243,-24.8617,3.79,256.94,,3.79,-0.03,,,,1.5,0.8,0.11,0.28,0.08,0.16,99602.608,99605.675,1.8,100,0.384,0.403
2111,414454.9,4,0,,,13,,,37.8288323,-122.2857286,-24.748,3.78,256.944,,3.78,-0.03,,,,1.5,0.8,0.12,0.29,0.08,0.16,99602.55,99605.615,1.9,100,0.381,0.397
2111,414455,4,0,,,13,,,37.82883154,-122.2857327,-24.7563,3.77,256.03,,3.77,0.04,,,,1.5,0.8,0.12,0.29,0.08,0.16,99602.464,99605.529,2,100,0.371,0.371
2111,414455.1,4,0,,,13,,,37.82883069,-122.2857369,-24.7762,3.82,255.717,,3.82,-0.05,,,,1.5,0.8,0.12,0.29,0.08,0.16,99602.369,99605.434,2.1,100,0.385,0.386
2111,414455.2,4,0,,,13,,,37.82882988,-122.2857412,-24.7728,3.82,254.838,,3.82,-0.01,,,,1.5,0.8,0.12,0.3,0.08,0.16,99602.279,99605.344,2.2,100,0.387,0.387
2111,414455.3,4,0,,,13,,,37.82882871,-122.2857455,-24.8047,3.83,255.096,,3.83,-0.01,,,,1.5,0.8,0.12,0.3,0.08,0.16,99602.148,99605.214,2.3,100,0.4,0.401
2111,414455.4,4,0,,,13,,,37.82882801,-122.2857499,-24.7575,3.82,256.226,,3.82,0,,,,1.5,0.8,0.12,0.3,0.08,0.16,99602.071,99605.136,2.4,100,0.394,0.396
2111,414455.5,4,0,,,13,,,37.82882673,-122.2857539,-24.7802,3.86,255.467,,3.86,-0.03,,,,1.5,0.8,0.12,0.31,0.08,0.16,99601.927,99604.992,2.5,100,0.375,0.376
2111,414455.6,4,0,,,13,,,37.82882627,-122.2857581,-24.6972,3.84,255.975,,3.84,-0.03,,,,1.5,0.8,0.13,0.31,0.08,0.16,99601.876,99604.941,2.6,100,0.377,0.386
2111,414455.7,4,0,,,13,,,37.82882532,-122.2857623,-24.7331,3.89,255.674,,3.89,0.01,,,,1.5,0.8,0.11,0.28,0.08,0.16,99601.77,99604.835,1.7,100,0.379,0.381
2111,414455.8,4,0,,,13,,,37.82882436,-122.2857665,-24.8417,3.88,255.388,,3.88,-0.01,,,,1.5,0.8,0.11,0.28,0.08,0.16,99601.661,99604.727,1.8,100,0.39,0.405
2111,414455.9,4,0,,,13,,,37.82882371,-122.285771,-24.752,3.91,255.412,,3.91,-0.01,,,,1.5,0.8,0.12,0.29,0.08,0.16,99601.59,99604.656,1.9,100,0.402,0.412
2111,414456,4,0,,,13,,,37.82882247,-122.285775,-24.81,3.91,254.665,,3.91,-0.05,,,,1.5,0.8,0.12,0.29,0.08,0.16,99601.451,99604.516,2,100,0.372,0.377
2111,414456.1,4,0,,,13,,,37.82882154,-122.2857794,-24.838,3.92,254.404,,3.92,-0.03,,,,1.5,0.8,0.12,0.29,0.08,0.16,99601.346,99604.412,2.1,100,0.401,0.402
2111,414456.2,4,0,,,13,,,37.82882045,-122.2857835,-24.829,3.93,254.663,,3.93,0.03,,,,1.5,0.8,0.1,0.26,0.08,0.16,99601.224,99604.29,1.2,100,0.383,0.383
2111,414456.3,4,0,,,13,,,37.82881975,-122.2857878,-24.8022,3.93,254.183,,3.93,-0.02,,,,1.5,0.8,0.11,0.26,0.08,0.16,99601.146,99604.211,1.3,100,0.379,0.38
2111,414456.4,4,0,,,13,,,37.82881873,-122.2857924,-24.7723,3.97,254.317,,3.97,-0.04,,,,1.5,0.8,0.11,0.27,0.08,0.16,99601.033,99604.098,1.4,100,0.427,0.429
2111,414456.5,4,0,,,13,,,37.82881749,-122.2857963,-24.7911,3.93,254.339,,3.93,-0.01,,,,1.5,0.8,0.11,0.27,0.08,0.16,99600.895,99603.96,1.5,100,0.369,0.37
2111,414456.6,4,0,,,13,,,37.82881674,-122.285801,-24.8008,3.93,254.455,,3.93,-0.01,,,,1.5,0.8,0.11,0.27,0.08,0.16,99600.811,99603.876,1.6,100,0.419,0.419
2111,414456.7,4,0,,,13,,,37.82881562,-122.2858051,-24.8468,3.98,253.776,,3.98,-0.01,,,,1.5,0.8,0.11,0.28,0.08,0.16,99600.685,99603.751,1.7,100,0.381,0.384
2111,414456.8,4,0,,,13,,,37.82881459,-122.2858095,-24.8014,3.98,253.309,,3.98,-0.02,,,,1.5,0.8,0.11,0.28,0.08,0.16,99600.572,99603.637,1.8,100,0.397,0.4
2111,414456.9,4,0,,,13,,,37.82881365,-122.2858137,-24.869,3.99,253.725,,3.99,-0.04,,,,1.5,0.8,0.1,0.25,0.08,0.16,99600.464,99603.53,0.9,100,0.384,0.39
2111,414457,4,0,,,13,,,37.82881242,-122.2858181,-24.8656,4.01,253.573,,4.01,-0.02,,,,1.5,0.8,0.1,0.25,0.08,0.16,99600.327,99603.393,1,100,0.411,0.411
2111,414457.1,4,0,,,13,,,37.82881141,-122.2858228,-24.7385,4.01,252.753,,4.01,-0.03,,,,1.5,0.8,0.1,0.25,0.08,0.16,99600.217,99603.282,1.1,100,0.426,0.445
2111,414457.2,4,0,,,13,,,37.82881044,-122.2858269,-24.8767,4.04,253.042,,4.04,-0.02,,,,1.5,0.8,0.1,0.26,0.08,0.16,99600.106,99603.172,1.2,100,0.383,0.407
2111,414457.3,4,0,,,13,,,37.82880936,-122.2858314,-24.8226,4.03,253.114,,4.03,0,,,,1.5,0.8,0.11,0.26,0.08,0.16,99599.987,99603.053,1.3,100,0.406,0.41
2111,414457.4,4,0,,,13,,,37.82880835,-122.2858357,-24.8589,4.04,253.255,,4.04,-0.05,,,,1.5,0.8,0.11,0.27,0.08,0.16,99599.873,99602.939,1.4,100,0.393,0.395
2111,414457.5,4,0,,,13,,,37.82880713,-122.28584,-24.8824,4.06,252.713,,4.06,-0.04,,,,1.5,0.8,0.11,0.27,0.08,0.16,99599.737,99602.803,1.5,100,0.408,0.408
2111,414457.6,4,0,,,13,,,37.8288062,-122.2858445,-24.9134,4.05,252.589,,4.05,0.01,,,,1.5,0.8,0.11,0.27,0.08,0.16,99599.634,99602.7,1.6,100,0.404,0.405
2111,414457.7,4,0,,,13,,,37.82880514,-122.2858487,-24.9086,4.04,252.865,,4.04,-0.03,,,,1.5,0.8,0.11,0.28,0.08,0.16,99599.514,99602.58,1.7,100,0.389,0.389
2111,414457.8,4,0,,,13,,,37.82880385,-122.2858533,-24.8472,4.04,252.22,,4.04,-0.02,,,,1.5,0.8,0.11,0.28,0.08,0.16,99599.371,99602.437,1.8,100,0.426,0.43
2111,414457.9,4,0,,,13,,,37.82880266,-122.2858578,-24.8487,4.07,252.326,,4.07,-0.03,,,,1.5,0.8,0.1,0.24,0.08,0.16,99599.239,99602.304,0.9,100,0.422,0.422
2111,414458,4,0,,,13,,,37.82880166,-122.2858619,-24.8911,4.09,252.372,,4.09,-0.09,,,,1.5,0.8,0.1,0.25,0.08,0.16,99599.127,99602.193,1,100,0.374,0.377
2111,414458.1,4,0,,,13,,,37.8288005,-122.2858663,-24.8857,4.09,252.389,,4.09,-0.01,,,,1.5,0.8,0.1,0.25,0.08,0.16,99598.997,99602.063,1.1,100,0.407,0.407
2111,414458.2,4,0,,,13,,,37.82879942,-122.2858709,-24.8617,4.13,252.701,,4.13,-0.03,,,,1.5,0.8,0.1,0.26,0.08,0.16,99598.878,99601.944,1.2,100,0.419,0.42
2111,414458.3,4,0,,,13,,,37.82879839,-122.2858752,-24.8431,4.14,253.203,,4.14,-0.02,,,,1.5,0.8,0.11,0.26,0.08,0.16,99598.762,99601.828,1.3,100,0.4,0.4
2111,414458.4,4,0,,,13,,,37.82879727,-122.2858802,-24.8434,4.14,252.919,,4.14,-0.01,,,,1.5,0.8,0.11,0.27,0.08,0.16,99598.638,99601.704,1.4,100,0.449,0.449
2111,414458.5,4,0,,,13,,,37.82879609,-122.2858846,-24.8596,4.2,253.057,,4.2,-0.03,,,,1.5,0.8,0.11,0.27,0.08,0.16,99598.506,99601.572,1.5,100,0.416,0.417
2111,414458.6,4,0,,,13,,,37.82879501,-122.2858892,-24.8577,4.19,252.551,,4.19,-0.06,,,,1.5,0.8,0.11,0.27,0.08,0.16,99598.386,99601.452,1.6,100,0.416,0.416
2111,414458.7,4,0,,,13,,,37.8287938,-122.2858936,-24.9214,4.21,253.577,,4.21,0.03,,,,1.5,0.8,0.11,0.28,0.08,0.16,99598.25,99601.316,1.7,100,0.412,0.417
2111,414458.8,4,0,,,13,,,37.82879299,-122.2858982,-24.8361,4.24,252.914,,4.24,-0.06,,,,1.5,0.8,0.11,0.28,0.08,0.16,99598.161,99601.226,1.8,100,0.415,0.424
2111,414458.9,4,0,,,13,,,37.82879166,-122.2859026,-24.9007,4.25,253.205,,4.25,0,,,,1.5,0.8,0.1,0.24,0.08,0.16,99598.011,99601.077,0.9,100,0.408,0.413
2111,414459,4,0,,,13,,,37.82879055,-122.2859074,-24.9165,4.29,253.585,,4.29,-0.07,,,,1.5,0.8,0.1,0.25,0.07,0.16,99597.887,99600.953,1,100,0.445,0.445
2111,414459.1,4,0,,,13,,,37.82878939,-122.285912,-24.9651,4.28,253.608,,4.28,-0.03,,,,1.5,0.8,0.1,0.25,0.07,0.16,99597.757,99600.823,1.1,100,0.424,0.427
2111,414459.2,4,0,,,13,,,37.82878831,-122.2859169,-24.8778,4.34,253.157,,4.34,-0.01,,,,1.5,0.8,0.1,0.26,0.07,0.16,99597.637,99600.703,1.2,100,0.442,0.45
2111,414459.3,4,0,,,13,,,37.828787,-122.2859216,-24.9352,4.36,253.473,,4.36,-0.04,,,,1.5,0.8,0.11,0.26,0.07,0.16,99597.491,99600.557,1.3,100,0.442,0.446
2111,414459.4,4,0,,,13,,,37.82878616,-122.2859263,-24.929,4.39,253.707,,4.39,-0.02,,,,1.5,0.8,0.11,0.27,0.07,0.16,99597.397,99600.463,1.4,100,0.419,0.419
2111,414459.5,4,0,,,13,,,37.82878475,-122.2859312,-24.9261,4.4,253.205,,4.4,-0.08,,,,1.5,0.8,0.11,0.27,0.07,0.16,99597.24,99600.307,1.5,100,0.457,0.457
2111,414459.6,4,0,,,13,,,37.82878406,-122.2859362,-24.9067,4.43,253.982,,4.43,0.02,,,,1.5,0.8,0.11,0.27,0.07,0.16,99597.163,99600.229,1.6,100,0.453,0.453
2111,414459.7,4,0,,,13,,,37.82878277,-122.2859408,-24.9252,4.44,253.939,,4.44,-0.05,,,,1.5,0.8,0.11,0.28,0.07,0.16,99597.018,99600.084,1.7,100,0.425,0.426
2111,414459.8,4,0,,,13,,,37.82878161,-122.2859458,-24.9419,4.5,253.685,,4.5,-0.06,,,,1.5,0.8,0.11,0.28,0.07,0.16,99596.889,99599.956,1.8,100,0.46,0.461
2111,414459.9,4,0,,,13,,,37.82878063,-122.2859508,-24.9195,4.5,253.778,,4.5,-0.03,,,,1.5,0.8,0.12,0.29,0.07,0.16,99596.78,99599.846,1.9,100,0.453,0.454
2111,414460,4,0,,,13,,,37.82877939,-122.2859557,-24.947,4.54,253.536,,4.54,0,,,,1.5,0.8,0.12,0.29,0.07,0.16,99596.641,99599.707,2,100,0.451,0.452
2111,414460.1,4,0,,,13,,,37.82877825,-122.2859608,-24.9541,4.56,253.939,,4.56,-0.12,,,,1.5,0.8,0.12,0.29,0.07,0.16,99596.514,99599.581,2.1,100,0.465,0.466
2111,414460.2,4,0,,,13,,,37.82877698,-122.2859654,-25.0198,4.57,254.061,,4.57,-0.04,,,,1.5,0.8,0.1,0.26,0.07,0.16,99596.372,99599.438,1.2,100,0.428,0.433
2111,414460.3,4,0,,,13,,,37.82877604,-122.2859709,-24.9592,4.63,254.401,,4.63,-0.08,,,,1.5,0.8,0.11,0.26,0.07,0.16,99596.267,99599.333,1.3,100,0.493,0.497
2111,414460.4,4,0,,,13,,,37.82877446,-122.2859756,-25.0473,4.64,254.097,,4.64,0.02,,,,1.5,0.8,0.11,0.27,0.07,0.16,99596.09,99599.157,1.4,100,0.45,0.459
2111,414460.5,4,0,,,13,,,37.8287735,-122.2859808,-24.9536,4.65,254.336,,4.64,-0.1,,,,1.5,0.8,0.11,0.27,0.07,0.16,99595.985,99599.051,1.5,100,0.466,0.475
2111,414460.6,4,0,,,13,,,37.82877246,-122.2859861,-24.9588,4.7,254.284,,4.7,-0.05,,,,1.5,0.8,0.11,0.27,0.07,0.16,99595.868,99598.934,1.6,100,0.477,0.477
2111,414460.7,4,0,,,13,,,37.82877151,-122.2859913,-25.0022,4.71,254.726,,4.71,-0.01,,,,1.5,0.8,0.11,0.28,0.07,0.16,99595.761,99598.828,1.7,100,0.473,0.475
2111,414460.8,4,0,,,13,,,37.82877018,-122.2859962,-24.9894,4.74,253.932,,4.74,-0.07,,,,1.5,0.8,0.11,0.28,0.07,0.16,99595.614,99598.68,1.8,100,0.45,0.451
2111,414460.9,4,0,,,13,,,37.82876879,-122.2860013,-25.0488,4.78,254.319,,4.78,-0.08,,,,1.5,0.8,0.1,0.24,0.07,0.16,99595.457,99598.524,0.9,100,0.479,0.483
2111,414461,4,0,,,13,,,37.82876794,-122.2860068,-24.9979,4.79,254.681,,4.79,-0.02,,,,1.5,0.8,0.1,0.25,0.07,0.16,99595.362,99598.429,1,100,0.492,0.494
2111,414461.1,4,0,,,13,,,37.82876679,-122.2860119,-24.9727,4.84,254.861,,4.84,-0.04,,,,1.5,0.8,0.1,0.25,0.07,0.16,99595.235,99598.301,1.1,100,0.463,0.464
2111,414461.2,4,0,,,13,,,37.82876554,-122.2860177,-24.9847,4.84,254.614,,4.84,-0.06,,,,1.5,0.8,0.1,0.26,0.07,0.16,99595.095,99598.161,1.2,100,0.526,0.526
2111,414461.3,4,0,,,13,,,37.82876452,-122.2860231,-24.9435,4.9,255.118,,4.9,-0.07,,,,1.5,0.8,0.11,0.26,0.07,0.16,99594.982,99598.048,1.3,100,0.494,0.496
2111,414461.4,4,0,,,13,,,37.82876345,-122.2860283,-25.0705,4.88,254.901,,4.88,-0.06,,,,1.5,0.8,0.11,0.27,0.07,0.16,99594.86,99597.927,1.4,100,0.466,0.483
2111,414461.5,4,0,,,13,,,37.82876208,-122.2860332,-25.0608,4.9,254.925,,4.9,-0.1,,,,1.5,0.8,0.11,0.27,0.07,0.16,99594.708,99597.775,1.5,100,0.459,0.459
2111,414461.6,4,0,,,13,,,37.82876092,-122.2860391,-24.9519,4.9,254.863,,4.9,0,,,,1.5,0.8,0.11,0.27,0.07,0.16,99594.58,99597.646,1.6,100,0.531,0.542
2111,414461.7,4,0,,,13,,,37.82876021,-122.2860448,-24.9519,4.95,255.419,,4.95,-0.1,,,,1.5,0.8,0.11,0.28,0.07,0.16,99594.5,99597.566,1.7,100,0.512,0.512
2111,414461.8,4,0,,,13,,,37.82875862,-122.2860498,-25.021,4.89,255.228,,4.89,-0.07,,,,1.5,0.8,0.11,0.28,0.07,0.16,99594.323,99597.389,1.8,100,0.471,0.476
2111,414461.9,4,0,,,13,,,37.82875778,-122.2860551,-25.0053,4.9,255.204,,4.9,-0.02,,,,1.5,0.8,0.12,0.29,0.07,0.16,99594.229,99597.295,1.9,100,0.48,0.48
2111,414462,4,0,,,13,,,37.82875659,-122.2860608,-25.0364,4.91,255.57,,4.91,-0.08,,,,1.5,0.8,0.1,0.25,0.07,0.16,99594.096,99597.163,1,100,0.517,0.517
2111,414462.1,4,0,,,13,,,37.82875552,-122.2860661,-25.0027,4.95,255.534,,4.95,-0.05,,,,1.5,0.8,0.1,0.25,0.07,0.16,99593.977,99597.043,1.1,100,0.482,0.483
2111,414462.2,4,0,,,13,,,37.82875456,-122.2860714,-25.0193,4.92,255.316,,4.92,-0.06,,,,1.5,0.8,0.1,0.26,0.07,0.16,99593.869,99596.935,1.2,100,0.473,0.473
2111,414462.3,4,0,,,13,,,37.82875337,-122.2860771,-25.0042,4.9,255.884,,4.9,-0.04,,,,1.5,0.8,0.11,0.26,0.07,0.16,99593.736,99596.803,1.3,100,0.522,0.522
2111,414462.4,4,0,,,13,,,37.82875213,-122.2860823,-25.0813,4.9,256.009,,4.9,-0.03,,,,1.5,0.8,0.11,0.27,0.07,0.16,99593.596,99596.664,1.4,100,0.472,0.479
2111,414462.5,4,0,,,13,,,37.82875118,-122.2860877,-25.0796,4.94,255.713,,4.94,-0.1,,,,1.5,0.8,0.11,0.27,0.07,0.16,99593.491,99596.558,1.5,100,0.484,0.484
2111,414462.6,4,0,,,13,,,37.82875028,-122.2860931,-25.0786,4.93,255.696,,4.93,-0.04,,,,1.5,0.8,0.11,0.27,0.07,0.16,99593.391,99596.458,1.6,100,0.489,0.489
2111,414462.7,4,0,,,13,,,37.82874925,-122.2860987,-25.0037,4.9,255.612,,4.9,-0.08,,,,1.5,0.8,0.11,0.28,0.07,0.16,99593.277,99596.344,1.7,100,0.506,0.512
2111,414462.8,4,0,,,13,,,37.82874785,-122.2861038,-25.1366,4.92,255.721,,4.92,-0.05,,,,1.5,0.8,0.11,0.28,0.07,0.16,99593.119,99596.186,1.8,100,0.47,0.488
2111,414462.9,4,0,,,13,,,37.82874684,-122.2861092,-25.1683,4.93,255.693,,4.92,-0.09,,,,1.5,0.8,0.12,0.28,0.07,0.16,99593.005,99596.073,1.9,100,0.486,0.487
2111,414463,4,0,,,13,,,37.8287456,-122.2861148,-25.0486,4.94,255.545,,4.94,-0.05,,,,1.5,0.8,0.12,0.29,0.07,0.16,99592.868,99595.935,2,100,0.513,0.527
2111,414463.1,4,0,,,13,,,37.82874464,-122.2861201,-25.1219,4.91,255.723,,4.91,-0.04,,,,1.5,0.8,0.12,0.29,0.07,0.16,99592.761,99595.828,2.1,100,0.476,0.482
2111,414463.2,4,0,,,13,,,37.82874353,-122.2861257,-25.1201,4.92,256.023,,4.91,-0.07,,,,1.5,0.8,0.12,0.3,0.07,0.16,99592.636,99595.703,2.2,100,0.505,0.505
